{
  "01": { "name": "Bourg-en-Bresse", "lat": 46.205, "lon": 5.226 },
  "02": { "name": "Laon", "lat": 49.564, "lon": 3.624 },
  "03": { "name": "Moulins", "lat": 46.565, "lon": 3.333 },
  "04": { "name": "Digne-les-Bains", "lat": 44.092, "lon": 6.236 },
  "05": { "name": "Gap", "lat": 44.559, "lon": 6.079 },
  "06": { "name": "Nice", "lat": 43.703, "lon": 7.266 },
  "07": { "name": "Privas", "lat": 44.735, "lon": 4.599 },
  "08": { "name": "Charleville-Mézières", "lat": 49.771, "lon": 4.719 },
  "09": { "name": "Foix", "lat": 42.964, "lon": 1.605 },
  "10": { "name": "Troyes", "lat": 48.297, "lon": 4.074 },
  "11": { "name": "Carcassonne", "lat": 43.213, "lon": 2.352 },
  "12": { "name": "Rodez", "lat": 44.351, "lon": 2.575 },
  "13": { "name": "Marseille", "lat": 43.296, "lon": 5.369 },
  "14": { "name": "Caen", "lat": 49.182, "lon": -0.371 },
  "15": { "name": "Aurillac", "lat": 44.926, "lon": 2.440 },
  "16": { "name": "Angoulême", "lat": 45.648, "lon": 0.156 },
  "17": { "name": "La Rochelle", "lat": 46.160, "lon": -1.151 },
  "18": { "name": "Bourges", "lat": 47.081, "lon": 2.398 },
  "19": { "name": "Tulle", "lat": 45.267, "lon": 1.769 },
  "2A": { "name": "Ajaccio", "lat": 41.919, "lon": 8.738 },
  "2B": { "name": "Bastia", "lat": 42.697, "lon": 9.451 },
  "21": { "name": "Dijon", "lat": 47.322, "lon": 5.041 },
  "22": { "name": "Saint-Brieuc", "lat": 48.514, "lon": -2.765 },
  "23": { "name": "Guéret", "lat": 46.170, "lon": 1.868 },
  "24": { "name": "Périgueux", "lat": 45.184, "lon": 0.721 },
  "25": { "name": "Besançon", "lat": 47.238, "lon": 6.024 },
  "26": { "name": "Valence", "lat": 44.933, "lon": 4.892 },
  "27": { "name": "Évreux", "lat": 49.027, "lon": 1.151 },
  "28": { "name": "Chartres", "lat": 48.443, "lon": 1.489 },
  "29": { "name": "Quimper", "lat": 47.996, "lon": -4.102 },
  "30": { "name": "Nîmes", "lat": 43.837, "lon": 4.360 },
  "31": { "name": "Toulouse", "lat": 43.604, "lon": 1.444 },
  "32": { "name": "Auch", "lat": 43.646, "lon": 0.587 },
  "33": { "name": "Bordeaux", "lat": 44.837, "lon": -0.579 },
  "34": { "name": "Montpellier", "lat": 43.611, "lon": 3.877 },
  "35": { "name": "Rennes", "lat": 48.117, "lon": -1.678 },
  "36": { "name": "Châteauroux", "lat": 46.811, "lon": 1.691 },
  "37": { "name": "Tours", "lat": 47.394, "lon": 0.695 },
  "38": { "name": "Grenoble", "lat": 45.188, "lon": 5.724 },
  "39": { "name": "Lons-le-Saunier", "lat": 46.675, "lon": 5.555 },
  "40": { "name": "Mont-de-Marsan", "lat": 43.890, "lon": -0.498 },
  "41": { "name": "Blois", "lat": 47.586, "lon": 1.335 },
  "42": { "name": "Saint-Étienne", "lat": 45.440, "lon": 4.387 },
  "43": { "name": "Le Puy-en-Velay", "lat": 45.043, "lon": 3.885 },
  "44": { "name": "Nantes", "lat": 47.218, "lon": -1.554 },
  "45": { "name": "Orléans", "lat": 47.902, "lon": 1.909 },
  "46": { "name": "Cahors", "lat": 44.447, "lon": 1.441 },
  "47": { "name": "Agen", "lat": 44.204, "lon": 0.621 },
  "48": { "name": "Mende", "lat": 44.518, "lon": 3.501 },
  "49": { "name": "Angers", "lat": 47.473, "lon": -0.564 },
  "50": { "name": "Saint-Lô", "lat": 49.116, "lon": -1.091 },
  "51": { "name": "Châlons-en-Champagne", "lat": 48.956, "lon": 4.364 },
  "52": { "name": "Chaumont", "lat": 48.111, "lon": 5.139 },
  "53": { "name": "Laval", "lat": 48.073, "lon": -0.769 },
  "54": { "name": "Nancy", "lat": 48.692, "lon": 6.184 },
  "55": { "name": "Bar-le-Duc", "lat": 48.774, "lon": 5.160 },
  "56": { "name": "Vannes", "lat": 47.658, "lon": -2.760 },
  "57": { "name": "Metz", "lat": 49.119, "lon": 6.176 },
  "58": { "name": "Nevers", "lat": 46.990, "lon": 3.163 },
  "59": { "name": "Lille", "lat": 50.629, "lon": 3.057 },
  "60": { "name": "Beauvais", "lat": 49.433, "lon": 2.083 },
  "61": { "name": "Alençon", "lat": 48.431, "lon": 0.093 },
  "62": { "name": "Arras", "lat": 50.291, "lon": 2.778 },
  "63": { "name": "Clermont-Ferrand", "lat": 45.777, "lon": 3.087 },
  "64": { "name": "Pau", "lat": 43.295, "lon": -0.369 },
  "65": { "name": "Tarbes", "lat": 43.234, "lon": 0.078 },
  "66": { "name": "Perpignan", "lat": 42.698, "lon": 2.895 },
  "67": { "name": "Strasbourg", "lat": 48.573, "lon": 7.752 },
  "68": { "name": "Colmar", "lat": 48.079, "lon": 7.358 },
  "69": { "name": "Lyon", "lat": 45.764, "lon": 4.835 },
  "70": { "name": "Vesoul", "lat": 47.623, "lon": 6.155 },
  "71": { "name": "Mâcon", "lat": 46.307, "lon": 4.828 },
  "72": { "name": "Le Mans", "lat": 48.007, "lon": 0.199 },
  "73": { "name": "Chambéry", "lat": 45.564, "lon": 5.917 },
  "74": { "name": "Annecy", "lat": 45.899, "lon": 6.129 },
  "75": { "name": "Paris", "lat": 48.857, "lon": 2.352 },
  "76": { "name": "Rouen", "lat": 49.443, "lon": 1.099 },
  "77": { "name": "Melun", "lat": 48.539, "lon": 2.659 },
  "78": { "name": "Versailles", "lat": 48.804, "lon": 2.120 },
  "79": { "name": "Niort", "lat": 46.323, "lon": -0.459 },
  "80": { "name": "Amiens", "lat": 49.894, "lon": 2.296 },
  "81": { "name": "Albi", "lat": 43.926, "lon": 2.148 },
  "82": { "name": "Montauban", "lat": 44.017, "lon": 1.355 },
  "83": { "name": "Toulon", "lat": 43.124, "lon": 5.928 },
  "84": { "name": "Avignon", "lat": 43.949, "lon": 4.806 },
  "85": { "name": "La Roche-sur-Yon", "lat": 46.671, "lon": -1.427 },
  "86": { "name": "Poitiers", "lat": 46.580, "lon": 0.340 },
  "87": { "name": "Limoges", "lat": 45.833, "lon": 1.261 },
  "88": { "name": "Épinal", "lat": 48.175, "lon": 6.452 },
  "89": { "name": "Auxerre", "lat": 47.798, "lon": 3.573 },
  "90": { "name": "Belfort", "lat": 47.638, "lon": 6.862 },
  "91": { "name": "Évry-Courcouronnes", "lat": 48.629, "lon": 2.442 },
  "92": { "name": "Nanterre", "lat": 48.892, "lon": 2.207 },
  "93": { "name": "Bobigny", "lat": 48.909, "lon": 2.439 },
  "94": { "name": "Créteil", "lat": 48.790, "lon": 2.456 },
  "95": { "name": "Pontoise", "lat": 49.051, "lon": 2.101 }
}
